{
  "name": "احمد ش م س",
  "phone": "966580313041",
  "location": "جده",
  "counter": 0
}
{
  "name": "ابوعبدالله 7074",
  "phone": "966555847074",
  "location": "جده",
  "counter": 1
}
{
  "name": "barakotta9",
  "phone": "966531955377",
  "location": "جده",
  "counter": 2
}
{
  "name": "mohammed s gg",
  "phone": "966560607968",
  "location": "جده",
  "counter": 3
}
{
  "name": "عبدالله 3145",
  "phone": "966566652663",
  "location": "جده",
  "counter": 4
}
{
  "name": "aedaleshahry",
  "phone": "966555713261",
  "location": "جده",
  "counter": 5
}
{
  "name": "alhjaz 55",
  "phone": "966543139095",
  "location": "جده",
  "counter": 6
}
{
  "name": "05020403 97230",
  "phone": "966502040378",
  "location": "جده",
  "counter": 7
}
{
  "name": "فجر جدة 2030",
  "phone": "966509617355",
  "location": "جده",
  "counter": 8
}
{
  "name": "abulubna2",
  "phone": "966569688474",
  "location": "جده",
  "counter": 9
}
{
  "name": "1q qk",
  "phone": "966555478780",
  "location": "جده",
  "counter": 10
}
{
  "name": "gaber 71440",
  "phone": "966563109693",
  "location": "جده",
  "counter": 11
}
{
  "name": "zayd aa",
  "phone": "966580718107",
  "location": "جده",
  "counter": 12
}
{
  "name": "ريما الجاسر",
  "phone": "966561166687",
  "location": "جده",
  "counter": 13
}
{
  "name": "عضو 908",
  "phone": "966567807132",
  "location": "جده",
  "counter": 14
}
{
  "name": "استغفر الله 4653615",
  "phone": "966503868253",
  "location": "جده",
  "counter": 15
}
{
  "name": "سعيد المطيري ابوجاسر",
  "phone": "966555557629",
  "location": "جده",
  "counter": 16
}
{
  "name": "we have",
  "phone": "966568412862",
  "location": "جده",
  "counter": 17
}
{
  "name": "wwvww",
  "phone": "966504226046",
  "location": "جده",
  "counter": 18
}
{
  "name": "استراحة ديالا",
  "phone": "966533543353",
  "location": "جده",
  "counter": 19
}
{
  "name": "المملكه في قلوبنا 7444",
  "phone": "966504784738",
  "location": "جده",
  "counter": 20
}
{
  "name": "ahmed1475",
  "phone": "966552776603",
  "location": "جده",
  "counter": 21
}
{
  "name": "استراحة الشروق",
  "phone": "966591434603",
  "location": "جده",
  "counter": 22
}
{
  "name": "aburansa",
  "phone": "966565759599",
  "location": "جده",
  "counter": 23
}
{
  "name": "nasoo12",
  "phone": "966503100111",
  "location": "جده",
  "counter": 24
}
{
  "name": "amar515",
  "phone": "966553929512",
  "location": "جده",
  "counter": 25
}
{
  "name": "انور66604904",
  "phone": "966566604904",
  "location": "جده",
  "counter": 26
}
{
  "name": "شاليهات الريف",
  "phone": "966555840967",
  "location": "جده",
  "counter": 27
}
{
  "name": "zmzmi_22",
  "phone": "966506015067",
  "location": "جده",
  "counter": 28
}
{
  "name": "tall alahlam",
  "phone": "966504761106",
  "location": "جده",
  "counter": 29
}
{
  "name": "soomasalem",
  "phone": "966565561509",
  "location": "جده",
  "counter": 30
}
{
  "name": "شاليهات بلاتسو",
  "phone": "966565353054",
  "location": "جده",
  "counter": 31
}
{
  "name": "abokhalid_399",
  "phone": "966540403800",
  "location": "جده",
  "counter": 32
}
{
  "name": "الالمعي ابو تركي",
  "phone": "966533420042",
  "location": "جده",
  "counter": 33
}
{
  "name": "استراحة المشهوري",
  "phone": "966557833815",
  "location": "جده",
  "counter": 34
}
{
  "name": "عضو 6350213",
  "phone": "966555403899",
  "location": "جده",
  "counter": 35
}
{
  "name": "برحمتك أستغيث",
  "phone": "966558226774",
  "location": "جده",
  "counter": 36
}
{
  "name": "عبدالرحمن يحي سكيك",
  "phone": "التواصل خاص فقط",
  "location": "جده",
  "counter": 37
}
{
  "name": "استراحة النخيل55",
  "phone": "966545784850",
  "location": "جده",
  "counter": 38
}
{
  "name": "محمد 15212",
  "phone": "966532300978",
  "location": "جده",
  "counter": 39
}
{
  "name": "استراحه وقاعه الملوك",
  "phone": "966505996398",
  "location": "جده",
  "counter": 40
}
{
  "name": "nwaf121212",
  "phone": "966596362317",
  "location": "جده",
  "counter": 41
}
{
  "name": "درة العروس-",
  "phone": "966558469697",
  "location": "جده",
  "counter": 42
}
{
  "name": "عضو 870208 1416",
  "phone": "966556031416",
  "location": "جده",
  "counter": 43
}
{
  "name": "sys11",
  "phone": "966536727702",
  "location": "جده",
  "counter": 44
}
{
  "name": "كوين لولو فرع جدة",
  "phone": "966548008738",
  "location": "جده",
  "counter": 45
}
{
  "name": "al sultan s",
  "phone": "966550984800",
  "location": "جده",
  "counter": 46
}
{
  "name": "عضو 1185546",
  "phone": "966535422937",
  "location": "جده",
  "counter": 47
}
{
  "name": "امير ماهر",
  "phone": "966552356899",
  "location": "جده",
  "counter": 48
}
